[
  {
    "c": "IR",
    "l": "/q/zmw:00000.486.40754",
    "lat": "35.439999",
    "ll": "35.439999 51.570000",
    "lon": "51.570000",
    "name": "Qarchak, Iran",
    "type": "city",
    "tz": "Asia/Tehran",
    "tzs": "+0330",
    "zmw": "00000.486.40754"
  },
  {
    "c": "UZ",
    "l": "/q/zmw:00000.165.38812",
    "lat": "38.869999",
    "ll": "38.869999 65.800003",
    "lon": "65.800003",
    "name": "Qarshi, Uzbekistan",
    "type": "city",
    "tz": "Asia/Samarkand",
    "tzs": "+05",
    "zmw": "00000.165.38812"
  },
  {
    "c": "UZ",
    "l": "/q/zmw:00000.162.38812",
    "lat": "38.830002",
    "ll": "38.830002 65.379997",
    "lon": "65.379997",
    "name": "Qamashi, Uzbekistan",
    "type": "city",
    "tz": "Asia/Samarkand",
    "tzs": "+05",
    "zmw": "00000.162.38812"
  },
  {
    "c": "IN",
    "l": "/q/zmw:00000.10.42395",
    "lat": "25.850000",
    "ll": "25.850000 87.550003",
    "lon": "87.550003",
    "name": "Qasba, India",
    "type": "city",
    "tz": "Asia/Kolkata",
    "tzs": "IST",
    "zmw": "00000.10.42395"
  },
  {
    "c": "LS",
    "l": "/q/zmw:00000.12.68456",
    "lat": "-30.120001",
    "ll": "-30.120001 28.690001",
    "lon": "28.690001",
    "name": "Qacha's Nek, Lesotho",
    "type": "city",
    "tz": "Africa/Maseru",
    "tzs": "SAST",
    "zmw": "00000.12.68456"
  },
  {
    "c": "AZ",
    "l": "/q/zmw:00000.26.37639",
    "lat": "41.090000",
    "ll": "41.090000 45.369999",
    "lon": "45.369999",
    "name": "Qazax, Azerbaijan",
    "type": "city",
    "tz": "Asia/Baku",
    "tzs": "+04",
    "zmw": "00000.26.37639"
  },
  {
    "c": "IL",
    "l": "/q/zmw:00000.97.40176",
    "lat": "32.279999",
    "ll": "32.279999 34.980000",
    "lon": "34.980000",
    "name": "Qalansuwa, Israel",
    "type": "city",
    "tz": "Asia/Jerusalem",
    "tzs": "IST",
    "zmw": "00000.97.40176"
  },
  {
    "c": "SO",
    "l": "/q/zmw:00000.6.63210",
    "lat": "11.460000",
    "ll": "11.460000 49.869999",
    "lon": "49.869999",
    "name": "Qandala, Somalia",
    "type": "city",
    "tz": "Africa/Mogadishu",
    "tzs": "EAT",
    "zmw": "00000.6.63210"
  },
  {
    "c": "KZ",
    "l": "/q/zmw:00000.14.35576",
    "lat": "48.009998",
    "ll": "48.009998 70.790001",
    "lon": "70.790001",
    "name": "Qarazhal, Kazakhstan",
    "type": "city",
    "tz": "Asia/Almaty",
    "tzs": "+06",
    "zmw": "00000.14.35576"
  },
  {
    "c": "AZ",
    "l": "/q/zmw:00000.24.WUBBY",
    "lat": "41.419998",
    "ll": "41.419998 46.919998",
    "lon": "46.919998",
    "name": "Qax, Azerbaijan",
    "type": "city",
    "tz": "Asia/Baku",
    "tzs": "+04",
    "zmw": "00000.24.WUBBY"
  },
  {
    "c": "KZ",
    "l": "/q/zmw:00000.62.35615",
    "lat": "46.439999",
    "ll": "46.439999 53.490002",
    "lon": "53.490002",
    "name": "Qaraton, Kazakhstan",
    "type": "city",
    "tz": "Asia/Oral",
    "tzs": "+05",
    "zmw": "00000.62.35615"
  },
  {
    "c": "KZ",
    "l": "/q/zmw:00000.84.36341",
    "lat": "49.410000",
    "ll": "49.410000 75.470001",
    "lon": "75.470001",
    "name": "Qarqaraly, Kazakhstan",
    "type": "city",
    "tz": "Asia/Almaty",
    "tzs": "+06",
    "zmw": "00000.84.36341"
  },
  {
    "c": "KZ",
    "l": "/q/zmw:00000.49.35849",
    "lat": "45.759998",
    "ll": "45.759998 62.110001",
    "lon": "62.110001",
    "name": "Qazaly, Kazakhstan",
    "type": "city",
    "tz": "Asia/Almaty",
    "tzs": "+06",
    "zmw": "00000.49.35849"
  },
  {
    "c": "AZ",
    "l": "/q/zmw:00000.22.WUBBG",
    "lat": "40.790001",
    "ll": "40.790001 46.310001",
    "lon": "46.310001",
    "name": "Qarayeri, Azerbaijan",
    "type": "city",
    "tz": "Asia/Baku",
    "tzs": "+04",
    "zmw": "00000.22.WUBBG"
  },
  {
    "c": "KZ",
    "l": "/q/zmw:00000.96.36003",
    "lat": "51.950001",
    "ll": "51.950001 76.029999",
    "lon": "76.029999",
    "name": "Qalqaman, Kazakhstan",
    "type": "city",
    "tz": "Asia/Almaty",
    "tzs": "+06",
    "zmw": "00000.96.36003"
  },
  {
    "c": "GL",
    "l": "/q/zmw:00000.19.04272",
    "lat": "60.720001",
    "ll": "60.720001 -46.029999",
    "lon": "-46.029999",
    "name": "Qaqortoq, Greenland",
    "type": "city",
    "tz": "America/Godthab",
    "tzs": "-03",
    "zmw": "00000.19.04272"
  },
  {
    "c": "AZ",
    "l": "/q/zmw:00000.8.37864",
    "lat": "40.439999",
    "ll": "40.439999 50.169998",
    "lon": "50.169998",
    "name": "Qala, Azerbaijan",
    "type": "city",
    "tz": "Asia/Baku",
    "tzs": "+04",
    "zmw": "00000.8.37864"
  },
  {
    "c": "MT",
    "l": "/q/zmw:00000.154.16597",
    "lat": "36.040001",
    "ll": "36.040001 14.310000",
    "lon": "14.310000",
    "name": "Qala, Malta",
    "type": "city",
    "tz": "Europe/Malta",
    "tzs": "CET",
    "zmw": "00000.154.16597"
  },
  {
    "c": "YE",
    "l": "/q/zmw:00000.581.41438",
    "lat": "14.230000",
    "ll": "14.230000 44.330002",
    "lon": "44.330002",
    "name": "Qa `al Haql, Yemen",
    "type": "city",
    "tz": "Asia/Aden",
    "tzs": "+03",
    "zmw": "00000.581.41438"
  }
]
